{
  "users": 
  [

  {
    "uid": "902997206406438",
    "data": 
    [

    {
      "id": "983525421686949",
      "created_time": "2016-01-10T03:10:17+0000",
      "place": {
        "id": "1565972710343305",
        "location": {
          "city": "Pittsburgh",
          "country": "United States",
          "latitude": 40.438556598,
          "longitude": -79.947452609,
          "state": "PA",
          "type" : "Historical"
        },
        "name": "Phipps Conservatory"
      }
    },


    {
      "id": "976836069022551",
      "created_time": "2015-12-28T03:10:02+0000",
      "place": {
        "id": "7133766387",
        "location": {
          "city": "Pittsburgh",
          "country": "United States",
          "latitude": 40.443717445158,
          "longitude": -79.942643399402,
          "state": "PA",
          "street": "5000 Forbes Ave",
          "zip": "15213",
          "type" : "Historical"
        },
        "name": "Carnegie Mellon University"
      }
    },


    {
      "id": "956840694355422",
      "created_time": "2015-11-11T20:00:00+0000",
      "place": {
        "id": "111948542155151",
        "location": {
          "city": "San Jose",
          "country": "United States",
          "latitude": 37.3041,
          "longitude": -121.873,
          "state": "CA",
          "type" : "Family Vacation"
        },
        "name": "San Jose, California"
      }
    },


    {
      "id": "942953875744104",
      "created_time": "2015-10-09T20:59:21+0000",
      "place": {
        "id": "113978721966327",
        "location": {
          "city": "Sunnyvale",
          "country": "United States",
          "latitude": 37.3538488,
          "longitude": -122.0149753,
          "state": "CA",
          "street": "889 E El Camino Real",
          "zip" : "94087-2937",
          "type" : "Family Vacation"
        },
        "name": "Chaat House"
      }
    },
    {
      "id": "938130449559780",
      "created_time": "2015-09-27T20:47:56+0000",
      "place": {
        "id": "63515847405",
        "location": {
          "city": "San Jose",
          "country": "United States",
          "latitude": 37.332658695696,
          "longitude": -121.901126341,
          "state": "CA",
          "street": "525 W Santa Clara St",
          "zip": "95113",
          "type" : "Historical"
        },
        "name": "SAP Center"
      }
    },
    {
      "id": "935254319847393",
      "created_time": "2015-09-21T02:57:19+0000",
      "place": {
        "id": "113428915334642",
        "location": {
          "city": "Sunnyvale",
          "country": "United States",
          "latitude": 37.372,
          "longitude": -122.026,
          "state": "CA",
          "type" : "Night Life"
        },
        "name": "Sunnyvale, California"
      }
    },
    {
      "id": "927279527311539",
      "created_time": "2015-09-06T02:21:35+0000",
      "place": {
        "id": "137390319634895",
        "location": {
          "city": "Sunnyvale",
          "country": "United States",
          "latitude": 37.405144847384,
          "longitude": -122.01395356276,
          "state": "CA",
          "street": "450 E Persian Dr",
          "zip": "94089",
          "type" : "Religious"
        },
        "name": "Sunnyvale Hindu Temple"
      }
    },
    {
      "id": "925656800807145",
      "created_time": "2015-09-03T07:05:45+0000",
      "place": {
        "id": "6192688417",
        "location": {
          "city": "Stanford",
          "country": "United States",
          "latitude": 37.429528544414,
          "longitude": -122.16736129394,
          "state": "CA",
          "street": "450 Serra Mall",
          "zip": "94305",
          "type" : "Historical"
        },
        "name": "Stanford University"
      }
    },
    {
      "id": "913751251997700",
      "created_time": "2015-08-10T17:57:58+0000",
      "place": {
        "id": "111657928873507",
        "location": {
          "city": "San Jose",
          "country": "United States",
          "latitude": 37.25774,
          "longitude": -121.87703,
          "state": "CA",
          "street": "5015 Almaden Expy",
          "zip": "95118-2050",
          "type" : "Family Vacation"
        },
        "name": "La Victoria Taqueria"
      }
    },
    {
      "id": "911292808910211",
      "created_time": "2015-08-05T21:25:47+0000",
      "place": {
        "id": "110504348969090",
        "location": {
          "city": "San Francisco",
          "country": "United States",
          "latitude": 37.615608,
          "longitude": -122.389544,
          "state": "CA",
          "zip": "94128",
          "type" : "Tourist"
        },
        "name": "San Francisco International Airport (SFO)"
      }
    },
    {
      "id": "899557993417026",
      "created_time": "2015-07-12T13:00:35+0000",
      "place": {
        "id": "138305202923011",
        "location": {
          "city": "Pune",
          "country": "India",
          "latitude": 18.517947388371,
          "longitude": 73.838619095683,
          "type" : "Family Vacation"
        },
        "name": "Panchavati Gaurav.."
      }
    },
    {
      "id": "899549570084535",
      "created_time": "2015-07-12T12:27:33+0000",
      "place": {
        "id": "114292048751479",
        "location": {
          "city": "Pune",
          "country": "India",
          "latitude": 18.516352478592,
          "longitude": 73.842437953285,
          "type" : "Family Vacation"
        },
        "name": "R Deccan City Pride"
      }
    },
    {
      "id": "879371465435679",
      "created_time": "2015-05-31T14:17:56+0000",
      "place": {
        "id": "242818799089396",
        "location": {
          "city": "Pune",
          "country": "India",
          "latitude": 18.543686856296,
          "longitude": 73.518611529215,
          "street": "Hyrige. HD Kote. Mysoer",
          "zip" : "411040",
          "type" : "Tourist"
        },
        "name": "Malhar Machi Mountain Resort"
      }
    },
    {
      "id": "820725767966916",
      "created_time": "2015-01-26T22:49:00+0000",
      "place": {
        "id": "320115451415815",
        "location": {
          "latitude": 18.42292,
          "longitude": 73.5246,
          "type" : "Clubbing"
        },
        "name": "Lavasa City, Pune"
      }
    },
    {
      "id": "794266810612812",
      "created_time": "2014-12-06T03:53:00+0000",
      "place": {
        "id": "255286644557083",
        "location": {
          "city": "Pune",
          "country": "India",
          "latitude": 18.493076901319,
          "longitude": 73.998612088132,
          "type" : "Clubbing"
        },
        "name": "Manali Resort"
      }
    },
    {
      "id": "706268326079328",
      "created_time": "2014-05-24T03:30:00+0000",
      "place": {
        "id": "143110902422870",
        "location": {
          "city": "Poona",
          "country": "India",
          "latitude": 18.489745836955,
          "longitude": 73.853109025648,
          "street": "Vidya Nagari, Shivdarshan",
          "zip": "411009",
          "type" : "Family Vacation"
        },
        "name": "PVGs COET"
      }
    },
    {
      "id": "673601149346046",
      "created_time": "2014-03-17T14:33:58+0000",
      "place": {
        "id": "212767425403623",
        "location": {
          "city": "Pune, Maharashtra",
          "latitude": 18.554397272104,
          "longitude": 73.807567068646,
          "type" : "Family Vacation"
        },
        "name": "Sanewadi, Aundh"
      }
    },
    {
      "id": "636234023082759",
      "created_time": "2013-12-24T05:51:13+0000",
      "place": {
        "id": "386490748105346",
        "location": {
          "city": "Mumbai",
          "country": "India",
          "latitude": 19.134984137508,
          "longitude": 72.913396088474,
          "street": "Mood Indigo Office, Students Activity Center, IIT Bombay, Powai",
          "zip": "400076",
          "type" : "Adventure"
        },
        "name": "Mood Indigo, IIT Bombay"
      }
    },
    {
      "id": "817075251665301",
      "created_time": "2013-06-30T06:30:00+0000",
      "place": {
        "id": "438600556159464",
        "location": {
          "city": "Anantnag",
          "country": "India",
          "latitude": 34.0723114,
          "longitude": 75.2709579,
          "street": "Pahalgam",
          "type" : "Scenery"
        },
        "name": "Pahalgam, Kashmir"
      }
    },
    {
      "id": "411750335531130",
      "created_time": "2012-06-19T14:31:38+0000",
      "place": {
        "id": "108159982539042",
        "location": {
          "city": "Dapoli",
          "country": "India",
          "latitude": 17.7667,
          "longitude": 73.1833,
          "type" : "Beach"
        },
        "name": "Dapoli"
      }
    },

{
      "id": "670269276345900",
      "created_time": "2010-10-18T15:50:43+0000",
      "place": {
        "id": "459911967369423",
        "location": {
          "city": "Pune",
          "country": "India",
          "latitude": 18.480755858028,
          "longitude": 73.867004037172,
          "type" : "Family Vacation"
        },
        "name": "Kalyan bhel,bibwevadi"
      }
  }

]

},

{
"uid" : "998686490185764",
  "data": [
    {
      "id": "892842037436877",
      "created_time": "2015-09-28T05:55:41+0000",
      "place": {
        "id": "63515847405",
        "location": {
          "city": "San Jose",
          "country": "United States",
          "latitude": 37.332658695696,
          "longitude": -121.901126341,
          "state": "CA",
          "street": "525 W Santa Clara St",
          "zip": "95113",
          "type" : "Historical"
        },
        "name": "SAP Center"
      }
    },
    {
      "id": "883063365081411",
      "created_time": "2015-09-06T02:21:35+0000",
      "place": {
        "id": "137390319634895",
        "location": {
          "city": "Sunnyvale",
          "country": "United States",
          "latitude": 37.405144847384,
          "longitude": -122.01395356276,
          "state": "CA",
          "street": "450 E Persian Dr",
          "zip": "94089",
          "type" : "Night Life"
        },
        "name": "Sunnyvale Hindu Temple"
      }
    },
    {
      "id": "868701319850949",
      "created_time": "2015-08-05T21:25:47+0000",
      "place": {
        "id": "110504348969090",
        "location": {
          "city": "San Francisco",
          "country": "United States",
          "latitude": 37.615608,
          "longitude": -122.389544,
          "state": "CA",
          "zip": "94128",
          "type" : "Family Vacation"
        },
        "name": "San Francisco International Airport (SFO)"
      }
    },
    {
      "id": "802736469780768",
      "created_time": "2015-03-07T11:03:32+0000",
      "place": {
        "id": "350252355086036",
        "location": {
          "city": "Pune",
          "country": "India",
          "latitude": 18.463264161635,
          "longitude": 73.918813760653,
          "street": "Nyati County, NIBM Annexe",
          "zip": "411060",
          "type" : "Family Vacation"
        },
        "name": "The Corinthians Resort & Club, Pune"
      }
    }

]  
},



{
"uid" : "1029884117106921",
"data": [
    {
      "id": "960152484080085",
      "created_time": "2016-01-11T01:14:15+0000",
      "place": {
        "id": "104064652962902",
        "location": {
          "latitude": 39.283494,
          "longitude": -76.609897,
          "type" : "Beach"
        },
        "name": "Inner Harbor"
      }
    },
    {
      "id": "954261524669181",
      "created_time": "2015-12-31T00:35:43+0000",
      "place": {
        "id": "260996640600184",
        "location": {
          "city": "New York",
          "country": "United States",
          "latitude": 40.759068806768,
          "longitude": -73.984921764392,
          "state": "NY",
          "zip": "10036",
          "type" : "Night Life"
        },
        "name": "42th Street Time Square."
      }
    },
    {
      "id": "954122328016434",
      "created_time": "2015-12-30T19:30:28+0000",
      "place": {
        "id": "345486278840930",
        "location": {
          "city": "New York",
          "country": "United States",
          "latitude": 40.751915147415,
          "longitude": -74.001856154192,
          "state": "NY",
          "zip": "10001",
          "type" : "Beach"
        },
        "name": "Nyc Highline"
      }
    },
    {
      "id": "953691088059558",
      "created_time": "2015-12-29T23:50:04+0000",
      "place": {
        "id": "18058830773",
        "location": {
          "city": "Princeton",
          "country": "United States",
          "latitude": 40.30993,
          "longitude": -74.69378,
          "state": "NJ",
          "zip": "08544",
          "type" : "Historical"
        },
        "name": "Princeton University"
      }
    },
    {
      "id": "953130281448972",
      "created_time": "2015-12-29T00:16:18+0000",
      "place": {
        "id": "143449545706080",
        "location": {
          "city": "Iselin",
          "country": "United States",
          "latitude": 40.57419,
          "longitude": -74.32532,
          "state": "NJ",
          "street": "1358 Oak Tree Rd",
          "zip": "08830",
          "type" : "Family Vacation"
        },
        "name": "Dimples Bombaytalk"
      }
    },
    {
      "id": "949490551812945",
      "created_time": "2015-12-22T18:51:56+0000",
      "place": {
        "id": "134052349946198",
        "location": {
          "city": "San Jose",
          "country": "United States",
          "latitude": 37.367147565642,
          "longitude": -121.92671562186,
          "state": "CA",
          "street": "1701 Airport Blvd",
          "zip": "95110",
          "type" : "Family Vacation"
        },
        "name": "San Jose International Airport (SJC)"
      }
    },
    {
      "id": "930804337014900",
      "created_time": "2015-11-12T08:20:16+0000",
      "place": {
        "id": "45408742662",
        "location": {
          "city": "San Jose",
          "country": "United States",
          "latitude": 37.3343165,
          "longitude": -121.8807252,
          "state": "CA",
          "street": "One Washington Square",
          "zip": "95192",
          "type" : "Historical"
        },
        "name": "San Jose State University"
      }
    },
    {
      "id": "926626380766029",
      "created_time": "2015-11-02T04:49:51+0000",
      "place": {
        "id": "111856692159256",
        "location": {
          "city": "San Francisco",
          "country": "United States",
          "latitude": 37.819722222222,
          "longitude": -122.47861111111,
          "state": "CA",
          "zip": "94129-0601",
          "type" : "Beach"
        },
        "name": "Golden Gate Bridge"
      }
    },
    {
      "id": "911276818967652",
      "created_time": "2015-09-27T20:46:00+0000",
      "place": {
        "id": "63515847405",
        "location": {
          "city": "San Jose",
          "country": "United States",
          "latitude": 37.332658695696,
          "longitude": -121.901126341,
          "state": "CA",
          "street": "525 W Santa Clara St",
          "zip": "95113",
          "type" : "Historical"
        },
        "name": "SAP Center"
      }
    },
    {
      "id": "908070475954953",
      "created_time": "2015-09-19T19:00:00+0000",
      "place": {
        "id": "113428915334642",
        "location": {
          "city": "Sunnyvale",
          "country": "United States",
          "latitude": 37.372,
          "longitude": -122.026,
          "state": "CA",
          "type" : "Night Life"
        },
        "name": "Sunnyvale, California"
      }
    },
    {
      "id": "899495073479160",
      "created_time": "2015-09-06T02:21:35+0000",
      "place": {
        "id": "137390319634895",
        "location": {
          "city": "Sunnyvale",
          "country": "United States",
          "latitude": 37.405144847384,
          "longitude": -122.01395356276,
          "state": "CA",
          "street": "450 E Persian Dr",
          "zip": "94089",
          "type" : "Religious"
        },
        "name": "Sunnyvale Hindu Temple"
      }
    },
    {
      "id": "897848116977189",
      "created_time": "2015-08-31T19:00:00+0000",
      "place": {
        "id": "103701963002297",
        "location": {
          "city": "Stanford",
          "country": "United States",
          "latitude": 37.4226,
          "longitude": -122.165,
          "state": "CA",
          "type" : "Historical"
        },
        "name": "Stanford, California"
      }
    },
    {
      "id": "887509878011013",
      "created_time": "2015-08-16T02:45:59+0000",
      "place": {
        "id": "160455363991401",
        "location": {
          "city": "San Jose",
          "country": "United States",
          "latitude": 37.335342992192,
          "located_in": "45408742662",
          "longitude": -121.8833229321,
          "state": "CA",
          "zip": "95112",
          "type" : "Historical"
        },
        "name": "San Jose State University Tower Hall"
      }
    },
    {
      "id": "883345398427461",
      "created_time": "2015-08-08T22:37:50+0000",
      "place": {
        "id": "40035168377",
        "location": {
          "city": "Santa Cruz",
          "country": "United States",
          "latitude": 36.964444056225,
          "longitude": -122.01759640485,
          "state": "CA",
          "street": "400 Beach St",
          "zip": "95060",
          "type" : "Beach"
        },
        "name": "Santa Cruz Beach Boardwalk"
      }
    },
    {
      "id": "881614591933875",
      "created_time": "2015-08-05T21:25:47+0000",
      "place": {
        "id": "110504348969090",
        "location": {
          "city": "San Francisco",
          "country": "United States",
          "latitude": 37.615608,
          "longitude": -122.389544,
          "state": "CA",
          "zip": "94128",
          "type" : "Family Vacation"
        },
        "name": "San Francisco International Airport (SFO)"
      }
    },
    {
      "id": "881115958650405",
      "created_time": "2015-08-04T20:44:17+0000",
      "place": {
        "id": "186646274830409",
        "location": {
          "city": "Mumbai",
          "country": "India",
          "latitude": 19.099674116397,
          "longitude": 72.874546051025,
          "street": "Sahar Airport Road",
          "zip": "400099",
          "type" : "Family Vacation"
        },
        "name": "Chhatrapati Shivaji International Airport, Terminal T2 - Mumbai"
      }
    },
    {
      "id": "848640368564631",
      "created_time": "2015-06-06T12:43:59+0000",
      "place": {
        "id": "316545051740646",
        "location": {
          "city": "Akola",
          "country": "India",
          "latitude": 20.698540798421,
          "longitude": 77.015639000024,
          "zip": "444004",
          "type" : "Family Vacation"
        },
        "name": "Big Cinemas"
      }
    },
    {
      "id": "839807469447921",
      "created_time": "2015-05-15T06:30:00+0000",
      "place": {
        "id": "110970905590779",
        "location": {
          "city": "Akola",
          "country": "India",
          "latitude": 20.7,
          "longitude": 77,
          "type" : "Family Vacation"
        },
        "name": "Akola, Maharashtra"
      }
    },
    {
      "id": "797335733695095",
      "created_time": "2015-03-12T06:30:00+0000",
      "place": {
        "id": "350252355086036",
        "location": {
          "city": "Pune",
          "country": "India",
          "latitude": 18.463264161635,
          "longitude": 73.918813760653,
          "street": "Nyati County, NIBM Annexe",
          "zip": "411060",
          "type" : "Clubbing"
        },
        "name": "The Corinthians Resort & Club, Pune"
      }
    },
    {
      "id": "782581198503882",
      "created_time": "2015-02-18T08:03:00+0000",
      "place": {
        "id": "195788230563386",
        "location": {
          "city": "Pune",
          "country": "India",
          "latitude": 18.457961083719,
          "longitude": 73.850904950572,
          "street": "Sr. No 27, Pune-Satara Road, Dhankawadi.",
          "zip": "411043",
          "type" : "Historical"
        },
        "name": "Pune Institute of Computer Technology"
      }
    },
    {
      "id": "754446184650717",
      "created_time": "2015-01-04T16:22:18+0000",
      "place": {
        "id": "182360811963108",
        "location": {
          "city": "Pune",
          "country": "India",
          "latitude": 18.545875588619,
          "located_in": "418300581652699",
          "longitude": 73.906585062478,
          "street": "Kalyaninagar",
          "type" : "Family Vacation"
        },
        "name": "Yana Sizzlers"
      }
    },
    {
      "id": "749187148509954",
      "created_time": "2014-12-31T02:46:48+0000",
      "place": {
        "id": "157277187768957",
        "location": {
          "latitude": 18.9902340982,
          "longitude": 73.2708795625,
          "type" : "Hill Station"
        },
        "name": "Matheran Hills"
      }
    },
    {
      "id": "733052310123438",
      "created_time": "2014-12-06T08:48:52+0000",
      "place": {
        "id": "234707603248307",
        "location": {
          "city": "Nagpur",
          "country": "India",
          "latitude": 20.7399581343,
          "longitude": 78.6008635934,
          "street": "Chhatrapati Shivaji Maharaj Square, Wardha, India 442001",
          "zip": "442104",
          "type" : "Tourist"
        },
        "name": "Wardha Main Road"
      }
    },
    {
      "id": "551610414934296",
      "created_time": "2014-01-23T15:37:47+0000",
      "place": {
        "id": "168941009896527",
        "location": {
          "city": "Khopoli",
          "country": "India",
          "latitude": 18.767742137271,
          "longitude": 73.281463248222,
          "street": "Adlabs Imagica, Sangadewadi",
          "zip": "410203",
          "type" : "Adventure"
        },
        "name": "Imagica"
      }
    },
    

{
      "id": "537538583008146",
      "created_time": "2013-12-22T06:30:00+0000",
      "place": {
        "id": "258233200856010",
        "location": {
          "city": "Mumbai",
          "country": "India",
          "latitude": 18.92343,
          "longitude": 72.83077,
          "street": "Apollo Bandar",
          "type" : "Beach"
        },
        "name": "Gateway of India"
      }
    },
    {
      "id": "534585846636753",
      "created_time": "2013-12-20T09:20:07+0000",
      "place": {
        "id": "165249916865198",
        "location": {
          "city": "Mumbai",
          "country": "India",
          "latitude": 19.131080162237,
          "longitude": 72.915862275502,
          "street": "Powai",
          "zip": "400076",
          "type" : "Adventure"
        },
        "name": "IIT Bombay"
      }
    },
    {
      "id": "534194343342570",
      "created_time": "2013-12-19T12:51:22+0000",
      "place": {
        "id": "130133577063232",
        "location": {
          "city": "Mumbai",
          "country": "India",
          "latitude": 19.017656,
          "longitude": 72.856178,
          "type" : "Tourist"
        },
        "name": "CST"
      }
    },
  
    {
      "id": "225622644199743",
      "created_time": "2012-02-26T09:06:54+0000",
      "place": {
        "id": "168669909839349",
        "location": {
          "city": "Pune",
          "country": "India",
          "latitude": 18.457614052644,
          "located_in": "227085743998582",
          "longitude": 73.851327447185,
          "street": "SCTR`s PICT, Survey No. 27, Dhankawadi,",
          "zip": "411043",
          "type" : "Historical"
        },
        "name": "PICT"
      }
    }

  ]


},


{

  "uid" : "123456",
  "data": [
    {
      "id": "1104100069601737",
      "created_time": "2016-01-01T11:18:06+0000",
      "place": {
        "id": "114952118516947",
        "location": {
          "city": "San Francisco",
          "country": "United States",
          "latitude": 37.775,
          "longitude": -122.418,
          "state": "CA",
          "type" : "Beach"
        },
        "name": "San Francisco, California"
      }
    },
    {
      "id": "1100133186665092",
      "created_time": "2015-12-25T07:05:41+0000",
      "place": {
        "id": "109779162384574",
        "location": {
          "city": "Big Sur",
          "country": "United States",
          "latitude": 36.2703,
          "longitude": -121.806,
          "state": "CA",
          "type" : "Beach"
        },
        "name": "Big Sur, California"
      }
    },
    {
      "id": "1073479689330442",
      "created_time": "2015-11-01T11:48:40+0000",
      "place": {
        "id": "197965060332999",
        "location": {
          "city": "San Francisco",
          "country": "United States",
          "latitude": 37.81592674797,
          "longitude": -122.37163111584,
          "state": "CA",
          "zip": "94130",
          "type" : "Adventure"
        },
        "name": "Treasure Island, San Francisco"
      }
    },
    {
      "id": "1041147455896999",
      "created_time": "2015-08-27T04:22:37+0000",
      "place": {
        "id": "114353421976451",
        "location": {
          "city": "San Jose",
          "country": "United States",
          "latitude": 37.333341219308,
          "longitude": -121.88289259202,
          "state": "CA",
          "zip": "95112",
          "type" : "Family Vacation"
        },
        "name": "AS lawn"
      }
    },
    {
      "id": "1037121166299628",
      "created_time": "2015-08-20T06:44:33+0000",
      "place": {
        "id": "601705463206374",
        "location": {
          "city": "San Jose",
          "country": "United States",
          "latitude": 37.3352962,
          "longitude": -121.8901791,
          "state": "CA",
          "street": "49 S 1st St",
          "zip": "95113",
          "type" : "Family Vacation"
        },
        "name": "CREAM San Jose"
      }
    },
    {
      "id": "835640696447677",
      "created_time": "2014-08-10T09:21:33+0000",
      "place": {
        "id": "173481769503216",
        "location": {
          "city": "Pune",
          "country": "India",
          "latitude": 18.54549115,
          "longitude": 73.91079625,
          "type" : "Family Vacation"
        },
        "name": "Green Field Kalyaninagar"
      }
    },
    {
      "id": "711626755515739",
      "created_time": "2013-12-14T13:45:53+0000",
      "place": {
        "id": "185291241538557",
        "location": {
          "city": "Pune",
          "country": "India",
          "latitude": 18.554887759902,
          "longitude": 73.965878879056,
          "type" : "Family Vacation"
        },
        "name": "Choki Dhani"
      }
    }
  ]
}


]
}